{
"type": "FeatureCollection",
"name": "DENBI_806_toilets",
"crs": { "type": "name", "properties": { "name": "urn:ogc:def:crs:OGC:1.3:CRS84" } },
"features": [
{ "type": "Feature", "properties": { "name": "silvers cafe", "payment_info": "Free", "accessible": "False", "radar": "False", "women": "True", "men": "True", "baby_change": "False", "Mon": "Unknown", "Tue": "Unknown", "Wed": "Unknown", "Thu": "Unknown", "Fri": "Unknown", "Sat": "Unknown", "Sun": "Unknown", "index_right": 144, "park_offical_id": "DENBI_806" }, "geometry": { "type": "Point", "coordinates": [ -3.489401564, 53.320417732 ] } },
{ "type": "Feature", "properties": { "name": "Aldi", "payment_info": "Free", "accessible": "True", "radar": "Unknown", "women": "True", "men": "True", "baby_change": "True", "Mon": "Unknown", "Tue": "Unknown", "Wed": "Unknown", "Thu": "Unknown", "Fri": "Unknown", "Sat": "Unknown", "Sun": "Unknown", "index_right": 144, "park_offical_id": "DENBI_806" }, "geometry": { "type": "Point", "coordinates": [ -3.506034872, 53.314308419 ] } },
{ "type": "Feature", "properties": { "name": "Greggs ", "payment_info": "Free", "accessible": "True", "radar": "Unknown", "women": "True", "men": "True", "baby_change": "Unknown", "Mon": "Unknown", "Tue": "Unknown", "Wed": "Unknown", "Thu": "Unknown", "Fri": "Unknown", "Sat": "Unknown", "Sun": "Unknown", "index_right": 144, "park_offical_id": "DENBI_806" }, "geometry": { "type": "Point", "coordinates": [ -3.504204927, 53.314853443 ] } },
{ "type": "Feature", "properties": { "name": "The Hungry Tum Chip Shop", "payment_info": "Cost unknown", "accessible": "True", "radar": "False", "women": "True", "men": "True", "baby_change": "Unknown", "Mon": "09:00-17:00", "Tue": "09:00-17:00", "Wed": "09:00-17:00", "Thu": "09:00-17:00", "Fri": "09:00-17:00", "Sat": "Closed", "Sun": "Closed", "index_right": 144, "park_offical_id": "DENBI_806" }, "geometry": { "type": "Point", "coordinates": [ -3.50340556, 53.315729724 ] } },
{ "type": "Feature", "properties": { "name": "Rhyl town hall", "payment_info": "Free", "accessible": "True", "radar": "True", "women": "Unknown", "men": "Unknown", "baby_change": "Unknown", "Mon": "Unknown", "Tue": "Unknown", "Wed": "Unknown", "Thu": "Unknown", "Fri": "Unknown", "Sat": "Unknown", "Sun": "Unknown", "index_right": 144, "park_offical_id": "DENBI_806" }, "geometry": { "type": "Point", "coordinates": [ -3.491581678, 53.319878258 ] } },
{ "type": "Feature", "properties": { "name": "Rhyl Station", "payment_info": "Free", "accessible": "False", "radar": "False", "women": "Unknown", "men": "Unknown", "baby_change": "False", "Mon": "Unknown", "Tue": "Unknown", "Wed": "Unknown", "Thu": "Unknown", "Fri": "Unknown", "Sat": "Unknown", "Sun": "Unknown", "index_right": 144, "park_offical_id": "DENBI_806" }, "geometry": { "type": "Point", "coordinates": [ -3.488759995, 53.318220118 ] } },
{ "type": "Feature", "properties": { "name": "Morrisons ", "payment_info": "Free", "accessible": "True", "radar": "Unknown", "women": "True", "men": "True", "baby_change": "True", "Mon": "Unknown", "Tue": "Unknown", "Wed": "Unknown", "Thu": "Unknown", "Fri": "Unknown", "Sat": "Unknown", "Sun": "Unknown", "index_right": 144, "park_offical_id": "DENBI_806" }, "geometry": { "type": "Point", "coordinates": [ -3.488418994, 53.317217704 ] } },
{ "type": "Feature", "properties": { "name": "Rhyl Library and Museum ", "payment_info": "Free", "accessible": "True", "radar": "True", "women": "True", "men": "True", "baby_change": "True", "Mon": "Unknown", "Tue": "Unknown", "Wed": "Unknown", "Thu": "Unknown", "Fri": "Unknown", "Sat": "Unknown", "Sun": "Unknown", "index_right": 144, "park_offical_id": "DENBI_806" }, "geometry": { "type": "Point", "coordinates": [ -3.489437687, 53.322168138 ] } }
]
}
